{
  "code": 9,
  "moblet": 44,
  "instanceData": {
    "mapTypeId": "ROADMAP",
    "locations": [
      {
        "address": "Rua James Watt, 84 - 04576-050",
        "title": "Fab",
        "description": "FabApp :)",
        "latitude": "-23.6118517",
        "longitude": "-46.6947361"
      },
      {
        "address": "Rua Havana, 39 - 06710-570",
        "title": "Casa antiga",
        "description": "Casa antiga description",
        "latitude": "-23.597245",
        "longitude": "-46.821253"
      },
      {
        "address": "05704-150",
        "title": "Huguines",
        "description": "Casa do Hugo",
        "latitude": "-23.629766",
        "longitude": "-46.721441"
      },
      {
        "address": "Hy",
        "title": "Olar",
        "description": "xabalau",
        "latitude": "-23.511085",
        "longitude": "-46.680587"
      },
      {
        "address": "CENTER",
        "title": "CENTER",
        "description": "OLD CENTER",
        "latitude": "-23.587486925",
        "longitude": "-46.729504275"
      },
      {
        "address": "Alor",
        "title": "Olar",
        "description": "Hellor",
        "latitude": "-23.787486925",
        "longitude": "-46.429504275"
      },
      {
        "address": "Alor",
        "title": "Olar",
        "description": "Eita",
        "latitude": "-23.587486925",
        "longitude": "-46.529504275"
      },
      {
        "address": "Longe",
        "title": "Longe",
        "description": "Morre, diabo",
        "latitude": "-23.980139",
        "longitude": "-46.946263"
      }
    ]
  }
}
